2023-06-26 11:34:05.753 20437-21176 loc_string              com.dsmagic.kibira.gms               D  ,,,,,,,,,1.08,0.52,0.94,5*06
                                                                                                    $GPGSV,4,1
2023-06-26 11:34:05.762 20437-21176 loc_string              com.dsmagic.kibira.gms               D  ,14,10,74,222,50,12,06
2023-06-26 11:34:05.771 20437-21176 loc_string              com.dsmagic.kibira.gms               D  ,145,28,16,11,326,40,18,24,005,36,1*65
2023-06-26 11:34:05.778 20437-21176 loc_string              com.dsmagic.kibira.gms               D  $GPGSV,4,2,14,23,66,025,
2023-06-26 11:34:05.788 20437-21176 loc_string              com.dsmagic.kibira.gms               D  49,25,42,147,43,26,42,317,48,28,30,224
2023-06-26 11:34:05.791 20437-21176 loc_string              com.dsmagic.kibira.gms               D  ,40,1*6A
                                                                                                    $GPGSV,4,3,14,29,2
2023-06-26 11:34:05.807 20437-21176 loc_string              com.dsmagic.kibira.gms               D  7,064,32,31,22,259,42,32,24,187,34,36,89,2
2023-06-26 11:34:05.809 20437-21176 loc_string              com.dsmagic.kibira.gms               D  67,48,1*64
                                                                                                    $GPGSV,4
2023-06-26 11:34:05.821 20437-21176 loc_string              com.dsmagic.kibira.gms               D  ,4,14,40,64,090,42,41,32,090,34,1*62
                                                                                                    $
2023-06-26 11:34:05.825 20437-21176 loc_string              com.dsmagic.kibira.gms               D  GPGSV,3,1,10,10,74,222,45
2023-06-26 11:33:56.253 20437-21176 loc_string              com.dsmagic.kibira.gms               D  ,1.03,0.51,0.89,5*02
                                                                                                    $GPGSV,4,1,14,10,74,222,49,12,06,145,28,16,11,326,39,18,24,005,35,1*60
                                                                                                    $GPGSV,4,2,14,23,67,026,48,25,43,
2023-06-26 11:33:56.300 20437-21176 loc_string              com.dsmagic.kibira.gms               D  147,42,26,41,318,47,28,30,225,40,1*6B
                                                                                                    $GPGSV,4,3,14,29,26,063,31,31,22,260,40,32,24,187,34,36,89,267,47,1*66
                                                                                                    $GPGSV,4,4,14,40
2023-06-26 11:33:56.333 20437-21176 loc_string              com.dsmagic.kibira.gms               D  ,64,090,42,41,32,090,34,1*62
                                                                                                    $GPGSV,3,1,10,10,74,222,44,12,06,145,20,18,24,005,25,23,67,026,48,6*62
                                                                                                    $GPGSV,3,2,10,25,43,147,4
2023-06-26 11:33:56.352 20437-21176 loc_string              com.dsmagic.kibira.gms               D  0,26,41,318,48,28,30,225,38,29,26,063,34,6*68
                                                                                                    $GPGSV,3,3,10,31,22,260,40,32,24,187,35,6*6F
                                                                                                    $GPGSV,1,1,02,15,08,068,,49,58,270
2023-06-26 11:33:56.370 20437-21176 loc_string              com.dsmagic.kibira.gms               D  ,,0*60
                                                                                                    $GLGSV,2,1,08,70,42,078,31,71,44,153,43,72,11,193,28,73,13,164,18,1*71
                                                                                                    $GLGSV,2,2,08,74,49,198,38,75,46,291,46,85,10,3
2023-06-26 11:33:56.391 20437-21176 loc_string              com.dsmagic.kibira.gms               D  56,23,86,08,312,35,1*70
                                                                                                    $GLGSV,2,1,06,71,44,153,38,72,11,193,24,73,13,164,23,75,46,291,50,3*76
                                                                                                    $GLGSV,2,2,06,85,10,356,15,86,
2023-06-26 11:33:56.410 20437-21176 loc_string              com.dsmagic.kibira.gms               D  08,312,37,3*76
                                                                                                    $GLGSV,1,1,01,76,01,325,,0*4C
                                                                                                    $GAGSV,2,1,06,07,34,117,39,13,13,023,31,21,75,312,52,26,31,330,48,2*71
                                                                                                    $GAGSV,2
2023-06-26 11:33:56.423 20437-21176 loc_string              com.dsmagic.kibira.gms               D  ,2,06,27,47,150,43,33,19,278,45,2*71
                                                                                                    $GAGSV,2,1,06,07,34,117,28,13,13,023,24,21,75,312,48,26,31,330,48,7*7B
                                                                                                    $GAGSV,2,2,06,27,
2023-06-26 11:33:56.444 20437-21176 loc_string              com.dsmagic.kibira.gms               D  47,150,40,33,19,278,43,7*71
                                                                                                    $GAGSV,1,1,02,08,07,071,,19,04,216,,0*76
                                                                                                    $GBGSV,2,1,08,10,26,119,32,19,50,072,49,22,54,174,47,26,
2023-06-26 11:33:56.475 20437-21176 loc_string              com.dsmagic.kibira.gms               D  30,288,48,1*7C
                                                                                                    $GBGSV,2,2,08,35,21,348,45,36,20,159,38,45,53,215,44,57,,,34,1*40
                                                                                                    $GBGSV,2,1,07,07,16,124,32,10,26,119,36,19,5
2023-06-26 11:33:56.491 20437-21176 loc_string              com.dsmagic.kibira.gms               D  0,072,09,22,54,174,15,B*08
                                                                                                    $GBGSV,2,2,07,26,30,288,12,35,21,348,16,36,20,159,08,B*3B
                                                                                                    $GBGSV,3,1,12,02,31,088,,03,03,088,,05,5
2023-06-26 11:33:56.500 20437-21176 loc_string              com.dsmagic.kibira.gms               D  9,088,,09,03,121,,0*77
                                                                                                    $GBGSV,3,2,12,13,08,027,,20,07,045,,21,11,208,,29,18,044,,0*75
                                                                                                    $GBGSV,3,3,12,40,10,129,,44,03,304,,60,
2023-06-26 11:33:56.521 20437-21176 loc_string              com.dsmagic.kibira.gms               D  35,087,,61,03,090,,0*7D
                                                                                                    $GQGSV,1,1,00,0*64
                                                                                                    $GNGLL,0002.8138140,N,03227.8001809,E,083355.00,A,D*73
2023-06-26 11:33:56.636 20437-21176 loc_string              com.dsmagic.kibira.gms               D  $
2023-06-26 11:33:56.640 20437-21176 loc_string              com.dsmagic.kibira.gms               D  GNRMC,083356.00,A,0002.8138143,N,03227.
2023-06-26 11:33:56.645 20437-21176 loc_string              com.dsmagic.kibira.gms               D  8001813,E,0.015,,260623,,,
2023-06-26 11:33:56.662 20437-21176 loc_string              com.dsmagic.kibira.gms               D  R,V*0A
                                                                                                    $GNVTG,,T,,M,0.015,N,0.027,K,D*39
2023-06-26 11:33:56.663 20437-21176 loc_string              com.dsmagic.kibira.gms               D
                                                                                                    $GNGGA,083356.00,000
2023-06-26 11:33:56.686 20437-21176 loc_string              com.dsmagic.kibira.gms               D  2.8138143,N,03227.8001813,E,4,12,0.51,1
2023-06-26 11:33:56.696 20437-21176 loc_string              com.dsmagic.kibira.gms               D  204.576,M,-14.150,M,1.0,0
2023-06-26 11:33:56.729 20437-21176 loc_string              com.dsmagic.kibira.gms               D  000*7A
                                                                                                    $GNGSA,A,3,18,23,25,28,31,10,2
2023-06-26 11:33:56.732 20437-21176 loc_string              com.dsmagic.kibira.gms               D  6,32,29,16,,,1.03,0.51,0.89
2023-06-26 11:33:56.736 20437-21176 loc_string              com.dsmagic.kibira.gms               D  ,1*09
                                                                                                    $GNGSA,A,3,74,70,71,85,73,75,,,
2023-06-26 11:33:56.745 20437-21176 loc_string              com.dsmagic.kibira.gms               D  ,,,,1.03,0.51,0.89,2*0C
2023-06-26 11:33:56.759 20437-21176 loc_string              com.dsmagic.kibira.gms               D  $GNGSA,A,3,27,26,07,33,21,13,,,,,,,1.03
2023-06-26 11:33:56.792 20437-21176 loc_string              com.dsmagic.kibira.gms               D  ,0.51,0.89,3*03
                                                                                                    $GNGSA,A
2023-06-26 11:33:56.797 20437-21176 loc_string              com.dsmagic.kibira.gms               D  ,3,22,19,36,10,26,45,35,07,,,,,1.03,0.51
2023-06-26 11:33:56.804 20437-21176 loc_string              com.dsmagic.kibira.gms               D  ,0.89,4*0B
                                                                                                    $GNGSA,A,3,,,
2023-06-26 11:33:56.817 20437-21176 loc_string              com.dsmagic.kibira.gms               D  ,,,,,,,,,,1.03,0.51,0.89,5*02
                                                                                                    $GPGSV,4,
2023-06-26 11:33:56.821 20437-21176 loc_string              com.dsmagic.kibira.gms               D  1,14,10,74,222,49,12,06
2023-06-26 11:33:56.828 20437-21176 loc_string              com.dsmagic.kibira.gms               D  ,145,28,16,11,326,39,18,24,005,35,1*60
2023-06-26 11:33:56.829 20437-21176 loc_string              com.dsmagic.kibira.gms               D  $GPGSV,4,2,14,23,67,026,49
2023-06-26 11:33:56.834 20437-21176 loc_string              com.dsmagic.kibira.gms               D  ,25,43,147,42,26,41,318,48,28,30,225,40
2023-06-26 11:33:56.842 20437-21176 loc_string              com.dsmagic.kibira.gms               D  ,1*65
                                                                                                    $GPGSV,4,3,14,29
2023-06-26 11:33:56.843 20437-21176 loc_string              com.dsmagic.kibira.gms               D  ,26,063,31,31,22,260,41,32,24,187,34,36,
2023-06-26 11:33:56.844 20437-21176 loc_string              com.dsmagic.kibira.gms               D  89,267,47,1*67
                                                                                                    $GPGSV,4
2023-06-26 11:33:56.863 20437-21176 loc_string              com.dsmagic.kibira.gms               D  ,4,14,40,64,090,42,41,32,090,34,1*62
2023-06-26 11:33:56.864 20437-21176 loc_string              com.dsmagic.kibira.gms               D  $GPGSV,3,1,10,10,74,222,43,1
2023-06-26 11:33:56.865 20437-21176 loc_string              com.dsmagic.kibira.gms               D  2,06,145,19,18,24,005,24,23,67,026,48,6
2023-06-26 11:33:56.869 20437-21176 loc_string              com.dsmagic.kibira.gms               D  *6E
                                                                                                    $GPGSV,3,2,10,25,4
2023-06-26 11:33:56.880 20437-21176 loc_string              com.dsmagic.kibira.gms               D  3,147,38,26,41,318,48,28,30,225,37,29,
2023-06-26 11:33:56.881 20437-21176 loc_string              com.dsmagic.kibira.gms               D  26,063,33,6*6F
                                                                                                    $GPGSV,3,3
2023-06-26 11:33:56.883 20437-21176 loc_string              com.dsmagic.kibira.gms               D  ,10,31,22,260,40,32,24,187,35,6*6F
